{
  "cities": [
    { "id": "TR_ADA", "name": "Adana", "lat": 37.0000, "lon": 35.3213, "timezone": "Europe/Istanbul", "diyanet_id": 9146, "region": "Akdeniz" },
    { "id": "TR_ADI", "name": "Adıyaman", "lat": 37.7648, "lon": 38.2786, "timezone": "Europe/Istanbul", "diyanet_id": 9150, "region": "Güneydoğu Anadolu" },
    { "id": "TR_AFY", "name": "Afyonkarahisar", "lat": 38.7507, "lon": 30.5567, "timezone": "Europe/Istanbul", "diyanet_id": 9158, "region": "Ege" },
    { "id": "TR_AGR", "name": "Ağrı", "lat": 39.7191, "lon": 43.0503, "timezone": "Europe/Istanbul", "diyanet_id": 9164, "region": "Doğu Anadolu" },
    { "id": "TR_AKS", "name": "Aksaray", "lat": 38.3687, "lon": 34.0370, "timezone": "Europe/Istanbul", "diyanet_id": 9181, "region": "İç Anadolu" },
    { "id": "TR_AMA", "name": "Amasya", "lat": 40.6499, "lon": 35.8353, "timezone": "Europe/Istanbul", "diyanet_id": 9193, "region": "Karadeniz" },
    { "id": "TR_ANK", "name": "Ankara", "lat": 39.9334, "lon": 32.8597, "timezone": "Europe/Istanbul", "diyanet_id": 9206, "region": "İç Anadolu" },
    { "id": "TR_ANT", "name": "Antalya", "lat": 36.8969, "lon": 30.7133, "timezone": "Europe/Istanbul", "diyanet_id": 9225, "region": "Akdeniz" },
    { "id": "TR_ARD", "name": "Ardahan", "lat": 41.1105, "lon": 42.7022, "timezone": "Europe/Istanbul", "diyanet_id": 9229, "region": "Doğu Anadolu" },
    { "id": "TR_ART", "name": "Artvin", "lat": 41.1828, "lon": 41.8183, "timezone": "Europe/Istanbul", "diyanet_id": 9233, "region": "Doğu Karadeniz" },
    { "id": "TR_AYD", "name": "Aydın", "lat": 37.8560, "lon": 27.8416, "timezone": "Europe/Istanbul", "diyanet_id": 9243, "region": "Ege" },
    { "id": "TR_BAL", "name": "Balıkesir", "lat": 39.6484, "lon": 27.8826, "timezone": "Europe/Istanbul", "diyanet_id": 9253, "region": "Ege" },
    { "id": "TR_BAR", "name": "Bartın", "lat": 41.6344, "lon": 32.3375, "timezone": "Europe/Istanbul", "diyanet_id": 9256, "region": "Karadeniz" },
    { "id": "TR_BAT", "name": "Batman", "lat": 37.8812, "lon": 41.1351, "timezone": "Europe/Istanbul", "diyanet_id": 9260, "region": "Güneydoğu Anadolu" },
    { "id": "TR_BAY", "name": "Bayburt", "lat": 40.2552, "lon": 40.2249, "timezone": "Europe/Istanbul", "diyanet_id": 9266, "region": "Doğu Karadeniz" },
    { "id": "TR_BIL", "name": "Bilecik", "lat": 40.1500, "lon": 29.9833, "timezone": "Europe/Istanbul", "diyanet_id": 9276, "region": "Marmara" },
    { "id": "TR_BIN", "name": "Bingöl", "lat": 38.8854, "lon": 40.4983, "timezone": "Europe/Istanbul", "diyanet_id": 9283, "region": "Doğu Anadolu" },
    { "id": "TR_BIT", "name": "Bitlis", "lat": 38.3938, "lon": 42.1232, "timezone": "Europe/Istanbul", "diyanet_id": 9290, "region": "Doğu Anadolu" },
    { "id": "TR_BOL", "name": "Bolu", "lat": 40.7350, "lon": 31.6061, "timezone": "Europe/Istanbul", "diyanet_id": 9308, "region": "Batı Karadeniz" },
    { "id": "TR_BRD", "name": "Burdur", "lat": 37.7265, "lon": 30.2906, "timezone": "Europe/Istanbul", "diyanet_id": 9327, "region": "Akdeniz" },
    { "id": "TR_BRS", "name": "Bursa", "lat": 40.1885, "lon": 29.0610, "timezone": "Europe/Istanbul", "diyanet_id": 9335, "region": "Marmara" },
    { "id": "TR_CAN", "name": "Çanakkale", "lat": 40.1553, "lon": 26.4142, "timezone": "Europe/Istanbul", "diyanet_id": 9349, "region": "Marmara" },
    { "id": "TR_CKR", "name": "Çankırı", "lat": 40.6013, "lon": 33.6134, "timezone": "Europe/Istanbul", "diyanet_id": 9363, "region": "İç Anadolu" },
    { "id": "TR_CRM", "name": "Çorum", "lat": 40.5489, "lon": 34.9533, "timezone": "Europe/Istanbul", "diyanet_id": 9370, "region": "Karadeniz" },
    { "id": "TR_DEN", "name": "Denizli", "lat": 37.7765, "lon": 29.0864, "timezone": "Europe/Istanbul", "diyanet_id": 9385, "region": "Ege" },
    { "id": "TR_DYB", "name": "Diyarbakır", "lat": 37.9144, "lon": 40.2306, "timezone": "Europe/Istanbul", "diyanet_id": 9390, "region": "Güneydoğu Anadolu" },
    { "id": "TR_DUZ", "name": "Düzce", "lat": 40.8438, "lon": 31.1565, "timezone": "Europe/Istanbul", "diyanet_id": 9400, "region": "Batı Karadeniz" },
    { "id": "TR_EDR", "name": "Edirne", "lat": 41.6818, "lon": 26.5623, "timezone": "Europe/Istanbul", "diyanet_id": 9406, "region": "Marmara" },
    { "id": "TR_ELZ", "name": "Elazığ", "lat": 38.6810, "lon": 39.2264, "timezone": "Europe/Istanbul", "diyanet_id": 9413, "region": "Doğu Anadolu" },
    { "id": "TR_ERC", "name": "Erzincan", "lat": 39.7500, "lon": 39.5000, "timezone": "Europe/Istanbul", "diyanet_id": 9422, "region": "Doğu Anadolu" },
    { "id": "TR_ERZ", "name": "Erzurum", "lat": 39.9055, "lon": 41.2695, "timezone": "Europe/Istanbul", "diyanet_id": 9430, "region": "Doğu Anadolu" },
    { "id": "TR_ESK", "name": "Eskişehir", "lat": 39.7667, "lon": 30.5256, "timezone": "Europe/Istanbul", "diyanet_id": 9437, "region": "İç Anadolu" },
    { "id": "TR_GAZ", "name": "Gaziantep", "lat": 37.0662, "lon": 37.3833, "timezone": "Europe/Istanbul", "diyanet_id": 9454, "region": "Güneydoğu Anadolu" },
    { "id": "TR_GIR", "name": "Giresun", "lat": 40.9128, "lon": 38.3895, "timezone": "Europe/Istanbul", "diyanet_id": 9469, "region": "Karadeniz" },
    { "id": "TR_GMS", "name": "Gümüşhane", "lat": 40.4386, "lon": 39.5086, "timezone": "Europe/Istanbul", "diyanet_id": 9484, "region": "Doğu Karadeniz" },
    { "id": "TR_HAK", "name": "Hakkari", "lat": 37.5744, "lon": 43.7408, "timezone": "Europe/Istanbul", "diyanet_id": 9494, "region": "Doğu Anadolu" },
    { "id": "TR_HAT", "name": "Hatay", "lat": 36.2021, "lon": 36.1603, "timezone": "Europe/Istanbul", "diyanet_id": 9508, "region": "Akdeniz" },
    { "id": "TR_IGD", "name": "Iğdır", "lat": 39.9167, "lon": 44.0333, "timezone": "Europe/Istanbul", "diyanet_id": 9548, "region": "Doğu Anadolu" },
    { "id": "TR_ISP", "name": "Isparta", "lat": 37.7648, "lon": 30.5566, "timezone": "Europe/Istanbul", "diyanet_id": 9534, "region": "Akdeniz" },
    { "id": "TR_IST", "name": "İstanbul", "lat": 41.0082, "lon": 28.9784, "timezone": "Europe/Istanbul", "diyanet_id": 9541, "region": "Marmara" },
    { "id": "TR_IZM", "name": "İzmir", "lat": 38.4192, "lon": 27.1287, "timezone": "Europe/Istanbul", "diyanet_id": 9620, "region": "Ege" },
    { "id": "TR_KAH", "name": "Kahramanmaraş", "lat": 37.5858, "lon": 36.9371, "timezone": "Europe/Istanbul", "diyanet_id": 9605, "region": "Akdeniz" },
    { "id": "TR_KRA", "name": "Karabük", "lat": 41.2061, "lon": 32.6204, "timezone": "Europe/Istanbul", "diyanet_id": 9609, "region": "Batı Karadeniz" },
    { "id": "TR_KAR", "name": "Karaman", "lat": 37.1759, "lon": 33.2287, "timezone": "Europe/Istanbul", "diyanet_id": 9613, "region": "İç Anadolu" },
    { "id": "TR_KRS", "name": "Kars", "lat": 40.6013, "lon": 43.0975, "timezone": "Europe/Istanbul", "diyanet_id": 9627, "region": "Doğu Anadolu" },
    { "id": "TR_KST", "name": "Kastamonu", "lat": 41.3887, "lon": 33.7827, "timezone": "Europe/Istanbul", "diyanet_id": 9632, "region": "Karadeniz" },
    { "id": "TR_KAY", "name": "Kayseri", "lat": 38.7312, "lon": 35.4787, "timezone": "Europe/Istanbul", "diyanet_id": 9637, "region": "İç Anadolu" },
    { "id": "TR_KKL", "name": "Kırıkkale", "lat": 39.8453, "lon": 33.5061, "timezone": "Europe/Istanbul", "diyanet_id": 9647, "region": "İç Anadolu" },
    { "id": "TR_KLR", "name": "Kırklareli", "lat": 41.7333, "lon": 27.2167, "timezone": "Europe/Istanbul", "diyanet_id": 9654, "region": "Marmara" },
    { "id": "TR_KSI", "name": "Kırşehir", "lat": 39.1425, "lon": 34.1709, "timezone": "Europe/Istanbul", "diyanet_id": 9658, "region": "İç Anadolu" },
    { "id": "TR_KLI", "name": "Kilis", "lat": 36.7184, "lon": 37.1212, "timezone": "Europe/Istanbul", "diyanet_id": 9642, "region": "Güneydoğu Anadolu" },
    { "id": "TR_KOC", "name": "Kocaeli", "lat": 40.8533, "lon": 29.8815, "timezone": "Europe/Istanbul", "diyanet_id": 9651, "region": "Marmara" },
    { "id": "TR_KON", "name": "Konya", "lat": 37.8714, "lon": 32.4846, "timezone": "Europe/Istanbul", "diyanet_id": 9676, "region": "İç Anadolu" },
    { "id": "TR_KUT", "name": "Kütahya", "lat": 39.4167, "lon": 29.9833, "timezone": "Europe/Istanbul", "diyanet_id": 9673, "region": "Ege" },
    { "id": "TR_MAL", "name": "Malatya", "lat": 38.3552, "lon": 38.3095, "timezone": "Europe/Istanbul", "diyanet_id": 9694, "region": "Doğu Anadolu" },
    { "id": "TR_MAN", "name": "Manisa", "lat": 38.6191, "lon": 27.4289, "timezone": "Europe/Istanbul", "diyanet_id": 9701, "region": "Ege" },
    { "id": "TR_MAR", "name": "Mardin", "lat": 37.3212, "lon": 40.7245, "timezone": "Europe/Istanbul", "diyanet_id": 9706, "region": "Güneydoğu Anadolu" },
    { "id": "TR_MER", "name": "Mersin", "lat": 36.8000, "lon": 34.6333, "timezone": "Europe/Istanbul", "diyanet_id": 9719, "region": "Akdeniz" },
    { "id": "TR_MUG", "name": "Muğla", "lat": 37.2153, "lon": 28.3636, "timezone": "Europe/Istanbul", "diyanet_id": 9710, "region": "Ege" },
    { "id": "TR_MUS", "name": "Muş", "lat": 38.7322, "lon": 41.4912, "timezone": "Europe/Istanbul", "diyanet_id": 9714, "region": "Doğu Anadolu" },
    { "id": "TR_NEV", "name": "Nevşehir", "lat": 38.6939, "lon": 34.6857, "timezone": "Europe/Istanbul", "diyanet_id": 9726, "region": "İç Anadolu" },
    { "id": "TR_NIG", "name": "Niğde", "lat": 37.9667, "lon": 34.6833, "timezone": "Europe/Istanbul", "diyanet_id": 9731, "region": "İç Anadolu" },
    { "id": "TR_ORD", "name": "Ordu", "lat": 40.9862, "lon": 37.8797, "timezone": "Europe/Istanbul", "diyanet_id": 9739, "region": "Karadeniz" },
    { "id": "TR_OSM", "name": "Osmaniye", "lat": 37.0742, "lon": 36.2461, "timezone": "Europe/Istanbul", "diyanet_id": 9743, "region": "Akdeniz" },
    { "id": "TR_RIZ", "name": "Rize", "lat": 41.0201, "lon": 40.5234, "timezone": "Europe/Istanbul", "diyanet_id": 9760, "region": "Doğu Karadeniz" },
    { "id": "TR_SAK", "name": "Sakarya", "lat": 40.6940, "lon": 30.4358, "timezone": "Europe/Istanbul", "diyanet_id": 9771, "region": "Marmara" },
    { "id": "TR_SAM", "name": "Samsun", "lat": 41.2867, "lon": 36.3300, "timezone": "Europe/Istanbul", "diyanet_id": 9781, "region": "Karadeniz" },
    { "id": "TR_SII", "name": "Siirt", "lat": 37.9333, "lon": 41.9416, "timezone": "Europe/Istanbul", "diyanet_id": 9794, "region": "Güneydoğu Anadolu" },
    { "id": "TR_SAN", "name": "Şanlıurfa", "lat": 37.1591, "lon": 38.7969, "timezone": "Europe/Istanbul", "diyanet_id": 9811, "region": "Güneydoğu Anadolu" },
    { "id": "TR_SIR", "name": "Şırnak", "lat": 37.5164, "lon": 42.4611, "timezone": "Europe/Istanbul", "diyanet_id": 9816, "region": "Güneydoğu Anadolu" },
    { "id": "TR_SIN", "name": "Sinop", "lat": 42.0231, "lon": 35.1531, "timezone": "Europe/Istanbul", "diyanet_id": 9798, "region": "Karadeniz" },
    { "id": "TR_SIV", "name": "Sivas", "lat": 39.7477, "lon": 37.0179, "timezone": "Europe/Istanbul", "diyanet_id": 9801, "region": "İç Anadolu" },
    { "id": "TR_TEK", "name": "Tekirdağ", "lat": 40.9833, "lon": 27.5167, "timezone": "Europe/Istanbul", "diyanet_id": 9823, "region": "Marmara" },
    { "id": "TR_TOK", "name": "Tokat", "lat": 40.3167, "lon": 36.5500, "timezone": "Europe/Istanbul", "diyanet_id": 9831, "region": "Karadeniz" },
    { "id": "TR_TRZ", "name": "Trabzon", "lat": 41.0015, "lon": 39.7178, "timezone": "Europe/Istanbul", "diyanet_id": 9845, "region": "Doğu Karadeniz" },
    { "id": "TR_TUN", "name": "Tunceli", "lat": 39.1079, "lon": 39.5401, "timezone": "Europe/Istanbul", "diyanet_id": 9851, "region": "Doğu Anadolu" },
    { "id": "TR_USK", "name": "Uşak", "lat": 38.6823, "lon": 29.4082, "timezone": "Europe/Istanbul", "diyanet_id": 9855, "region": "Ege" },
    { "id": "TR_VAN", "name": "Van", "lat": 38.4891, "lon": 43.4089, "timezone": "Europe/Istanbul", "diyanet_id": 9860, "region": "Doğu Anadolu" },
    { "id": "TR_YAL", "name": "Yalova", "lat": 40.6500, "lon": 29.2667, "timezone": "Europe/Istanbul", "diyanet_id": 9866, "region": "Marmara" },
    { "id": "TR_YOZ", "name": "Yozgat", "lat": 39.8181, "lon": 34.8147, "timezone": "Europe/Istanbul", "diyanet_id": 9876, "region": "İç Anadolu" },
    { "id": "TR_ZON", "name": "Zonguldak", "lat": 41.4564, "lon": 31.7987, "timezone": "Europe/Istanbul", "diyanet_id": 9883, "region": "Batı Karadeniz" }
  ]
}
